     2.11           OBSERVATION DATA    C (COMPASS)         RINEX VERSION / TYPE
BLANK OR G = GPS,  R = GLONASS,  E = GALILEO,  M = MIXED    COMMENT             
CHC Navigation      CHC Navigation      20-05-24 08:51      PGM / RUN BY / DATE 
1055568                                                     MARKER NAME         
1055568                                                     MARKER NUMBER       
CHC                 CHC                                     OBSERVER / AGENCY   
1055568             CHC I70             1.6.76.2            REC # / TYPE / VERS 
1055568             CHCI70                                  ANT # / TYPE        
 -2205310.8818  5184369.6508  2979982.5166                  APPROX POSITION XYZ 
        1.8358        0.0000        0.0000                  ANTENNA: DELTA H/E/N
     1     1     0                                          WAVELENGTH FACT L1/2
     5    C1    P2    L1    L6    S1                        # / TYPES OF OBSERV 
     5.000                                                  INTERVAL            
  2022     6     2     5    21   20.0000000     GPS         TIME OF FIRST OBS   
  2022     6     2     6    51   45.0000000     GPS         TIME OF LAST OBS    
     0                                                      RCV CLOCK OFFS APPL 
    18                                                      LEAP SECONDS        
    14                                                      # OF SATELLITES     
   C01  1086  1086  1086  1086  1086  1086                  PRN / # OF OBS      
   C02  1086  1086  1086  1086  1086  1086                  PRN / # OF OBS      
   C03  1086  1086  1086  1086  1086  1086                  PRN / # OF OBS      
   C04  1086  1086  1086  1086  1086  1086                  PRN / # OF OBS      
   C05   178   133   133   178   178   133                  PRN / # OF OBS      
   C07  1086  1086  1086  1086  1086  1086                  PRN / # OF OBS      
   C10  1086  1086  1086  1086  1086  1086                  PRN / # OF OBS      
   C11  1086  1086  1086  1086  1086  1086                  PRN / # OF OBS      
   C12  1086  1086  1086  1086  1086  1086                  PRN / # OF OBS      
   C13  1086  1086  1086  1086  1086  1086                  PRN / # OF OBS      
   C14  1086  1086  1086  1086  1086  1086                  PRN / # OF OBS      
   C21  1086     0     0  1086  1086     0                  PRN / # OF OBS      
   C23  1042     0     0  1042  1042     0                  PRN / # OF OBS      
   C25   943     0     0   943   943     0                  PRN / # OF OBS      
HUACE ANT REFERENCEPOINT                                    COMMENT             
                                                            END OF HEADER       
 22  6  2  5 21 20.0000000  0 14C01C02C03C04C05C07C10C11C12C13C14C21
                                C23C25
  37497424.086 6  37497427.801 6 195258961.50906         0.000          38.700  
  37500164.945 6  37500164.527 7 195273233.71706         0.000          38.500  
  36782067.328 7  36782067.609 7 191533877.63007         0.000          42.600  
  38587838.133 6  38587841.320 6 200937036.26906         0.000          38.200  
  39201365.484 5  39201368.258 5 204131795.40405         0.000          33.600  
  35838999.852 7  35838997.723 7 186623078.84407         0.000          43.600  
  35825595.188 7  35825595.297 7 186553270.86507         0.000          47.200  
  22605480.219 7  22605479.461 7 117712666.11707         0.000          46.800  
  23823116.070 6  23823118.410 7 124053221.33506         0.000          41.400  
  36829996.172 7  36830002.820 7 191783452.20307         0.000          46.800  
  25164571.898 7  25164578.809 7 131038517.64607         0.000          42.000  
  23538314.500 7         0.000   122570189.45207         0.000          44.000  
  24946958.398 6         0.000   129905372.96806         0.000          40.500  
  23774237.023 7         0.000   123798686.25007         0.000          45.600  
 22  6  2  5 21 25.0000000  0 14C01C02C03C04C05C07C10C11C12C13C14C21
                                C23C25
  37496670.570 6  37496673.168 6 195255033.61706         0.000          38.400  
  37499398.930 6  37499398.395 7 195269245.86206         0.000          38.100  
  36781292.609 7  36781292.723 7 191529842.08607         0.000          42.500  
  38587099.117 6  38587103.199 6 200933191.90106         0.000          38.200  
  39200594.516 5  39200596.926 5 204127778.57705         0.000          33.500  
  35838332.883 7  35838330.395 7 186619603.98007         0.000          44.700  
  35824588.953 7  35824589.207 7 186548031.49507         0.000          46.300  
  22604350.047 7  22604350.094 7 117706784.45307         0.000          47.500  
  23823465.531 6  23823467.656 7 124055040.76506         0.000          40.900  
  36829043.422 7  36829049.996 7 191778490.27507         0.000          46.800  
  25160811.367 6  25160818.254 7 131018937.09306         0.000          41.900  
  23537090.938 7         0.000   122563816.40407         0.000          44.100  
  24945569.781 6         0.000   129898143.90706         0.000          40.400  
  23775188.727 7         0.000   123803641.33107         0.000          45.300  
 22  6  2  5 21 30.0000000  0 13C01C02C03C04C07C10C11C12C13C14C21C23
                                C25
  37495916.508 6  37495919.496 6 195251108.44006         0.000          38.600  
  37498634.156 6  37498633.273 7 195265260.75506         0.000          38.200  
  36780518.305 7  36780518.191 7 191525809.31307         0.000          42.500  
  38586362.305 6  38586365.566 6 200929350.38706         0.000          38.400  
  35837666.727 7  35837664.172 7 186616134.66307         0.000          44.700  
  35823583.938 7  35823583.871 7 186542797.28907         0.000          46.800  
  22603221.305 7  22603221.426 7 117700906.45007         0.000          46.800  
  23823816.359 7  23823817.582 7 124056863.63607         0.000          42.300  
  36828091.711 7  36828097.922 7 191773534.43907         0.000          45.800  
  25157051.406 7  25157058.723 7 130999358.55107         0.000          42.200  
  23535869.938 7         0.000   122557458.94207         0.000          44.300  
  24944184.875 6         0.000   129890930.05806         0.000          40.400  
  23776142.281 7         0.000   123808607.90707         0.000          45.400  
 22  6  2  5 21 35.0000000  0 14C01C02C03C04C05C07C10C11C12C13C14C21
                                C23C25
  37495163.188 6  37495165.949 6 195247186.04206         0.000          38.700  
  37497868.563 6  37497868.543 7 195261278.38706         0.000          38.000  
  36779744.016 7  36779744.172 7 191521779.33207         0.000          42.500  
  38585625.063 6  38585628.297 6 200925511.60106         0.000          38.400  
  39199053.453 5  39199056.301 5 204119757.15805         0.000          33.200  
  35837001.797 7  35836998.984 7 186612670.91907         0.000          44.700  
  35822579.813 7  35822579.906 7 186537568.23407         0.000          46.700  
  22602093.359 7  22602093.250 7 117695032.19907         0.000          46.700  
  23824166.594 6  23824168.555 7 124058690.04306         0.000          41.700  
  36827141.117 7  36827147.535 7 191768584.65907         0.000          45.900  
  25153292.008 6  25153299.195 7 130979782.05106         0.000          41.900  
  23534651.773 7         0.000   122551117.01907         0.000          43.700  
  24942802.422 6         0.000   129883731.36206         0.000          39.900  
  23777098.297 7         0.000   123813585.99507         0.000          45.800  
 22  6  2  5 21 40.0000000  0 14C01C02C03C04C05C07C10C11C12C13C14C21
                                C23C25
  37494410.242 6  37494413.500 7 195243266.70306         0.000          38.600  
  37497104.891 6  37497104.352 7 195257299.01106         0.000          38.000  
  36778971.297 7  36778971.090 7 191517752.44007         0.000          42.800  
  38584887.867 6  38584891.730 6 200921675.92806         0.000          38.300  
  39198284.867 5  39198286.637 5 204115748.90505         0.000          33.000  
  35836337.398 7  35836334.793 7 186609213.02107         0.000          44.700  
  35821576.477 7  35821576.625 7 186532344.65507         0.000          45.800  
  22600965.625 7  22600966.113 7 117689162.01707         0.000          46.600  
  23824517.781 6  23824519.875 7 124060520.22806         0.000          41.400  
  36826191.523 7  36826198.273 7 191763641.30807         0.000          45.900  
  25149532.953 7  25149540.254 7 130960207.89307         0.000          42.300  
  23533436.898 7         0.000   122544791.00607         0.000          43.600  
  24941422.766 6         0.000   129876548.15206         0.000          39.900  
  23778056.422 7         0.000   123818575.84407         0.000          45.500  
 22  6  2  5 21 45.0000000  0 14C01C02C03C04C05C07C10C11C12C13C14C21
                                C23C25
  37493658.305 6  37493661.645 6 195239350.26206         0.000          38.400  
  37496341.219 6  37496340.770 7 195253322.49706         0.000          38.200  
  36778198.531 7  36778198.320 7 191513728.47107         0.000          42.600  
  38584152.336 6  38584155.723 6 200917843.12306         0.000          38.300  
  39197515.078 5  39197517.004 5 204111744.46705         0.000          32.600  
  35835674.914 7  35835672.047 7 186605760.81307         0.000          44.700  
  35820574.406 7  35820574.344 7 186527126.34107         0.000          46.700  
  22599839.156 7  22599839.645 7 117683295.71107         0.000          46.600  
  23824870.508 7  23824872.398 7 124062354.04007         0.000          42.200  
  36825243.383 7  36825249.977 7 191758704.10507         0.000          45.300  
  25145774.383 6  25145781.523 7 130940635.95306         0.000          41.700  
  23532224.742 7         0.000   122538480.66907         0.000          43.400  
  24940047.039 6         0.000   129869380.22506         0.000          40.500  
  23779016.953 7         0.000   123823577.31407         0.000          45.600  
 22  6  2  5 21 50.0000000  0 13C01C02C03C04C07C10C11C12C13C14C21C23
                                C25
  37492906.188 6  37492909.594 6 195235435.87806         0.000          38.400  
  37495577.750 6  37495577.730 7 195249348.10206         0.000          38.000  
  36777426.016 7  36777425.883 7 191509706.55407         0.000          42.800  
  38583416.531 6  38583420.098 6 200914012.37606         0.000          38.300  
  35835012.336 7  35835010.000 7 186602313.41207         0.000          45.000  
  35819573.359 7  35819573.277 7 186521912.48407         0.000          46.300  
  22598713.336 7  22598713.453 7 117677432.40507         0.000          46.400  
  23825223.141 6  23825225.262 7 124064190.65806         0.000          41.400  
  36824296.766 7  36824302.828 7 191753772.30607         0.000          46.000  
  25142015.305 6  25142023.219 7 130921065.33006         0.000          41.200  
  23531016.344 7         0.000   122532185.21107         0.000          43.900  
  24938672.758 6         0.000   129862226.74106         0.000          40.800  
  23779979.883 7         0.000   123828589.52907         0.000          46.100  
 22  6  2  5 21 55.0000000  0 14C01C02C03C04C05C07C10C11C12C13C14C21
                                C23C25
  37492155.227 6  37492158.809 7 195231524.80906         0.000          38.900  
  37494815.281 6  37494814.949 7 195245376.88106         0.000          38.400  
  36776654.336 7  36776654.230 7 191505687.95507         0.000          42.400  
  38582681.297 6  38582684.914 6 200910184.92106         0.000          38.600  
  39195979.086 5         0.000   204103744.00405         0.000          33.000  
  35834351.844 7  35834349.078 7 186598872.11207         0.000          43.900  
  35818573.102 7  35818572.875 7 186516704.30007         0.000          46.500  
  22597588.391 7  22597588.629 7 117671573.36307         0.000          46.800  
  23825576.531 6  23825578.922 7 124066031.31006         0.000          41.400  
  36823350.273 7  36823356.906 7 191748847.11307         0.000          45.700  
  25138258.086 6  25138265.777 7 130901497.32106         0.000          40.800  
  23529810.367 7         0.000   122525905.88407         0.000          44.200  
  24937302.031 6         0.000   129855088.95906         0.000          41.400  
  23780944.383 7         0.000   123833613.69907         0.000          45.400  
 22  6  2  5 22  0.0000000  0 14C01C02C03C04C05C07C10C11C12C13C14C21
                                C23C25
  37491405.047 6  37491408.094 7 195227616.23906         0.000          38.600  
  37494053.133 6  37494052.762 7 195241408.17506         0.000          38.400  
  36775883.109 7  36775882.930 7 191501671.90307         0.000          42.600  
  38581946.945 6  38581950.586 6 200906360.05206         0.000          38.400  
  39195211.797 5  39195213.824 5 204099746.65505         0.000          32.300  
  35833692.125 7  35833689.285 7 186595436.13007         0.000          44.900  
  35817574.094 7  35817573.777 7 186511501.06407         0.000          46.500  
  22596463.672 7  22596464.191 7 117665717.80907         0.000          46.800  
  23825930.813 6  23825932.676 7 124067875.17806         0.000          41.400  
  36822406.172 7  36822412.215 7 191743927.79807         0.000          46.400  
  25134500.438 6  25134508.074 7 130881931.16106         0.000          40.400  
  23528607.219 7         0.000   122519641.86307         0.000          44.700  
  24935933.977 6         0.000   129847966.08006         0.000          41.600  
  23781911.023 7         0.000   123838649.07807         0.000          45.600  
 22  6  2  5 22  5.0000000  0 14C01C02C03C04C05C07C10C11C12C13C14C21
                                C23C25
  37490654.492 6  37490658.055 7 195223710.77906         0.000          38.300  
  37493291.023 6  37493291.129 7 195237442.57106         0.000          37.800  
  36775112.555 7  36775112.488 7 191497658.97607         0.000          42.600  
  38581213.398 6  38581216.676 6 200902538.27406         0.000          38.900  
  39194445.414 5  39194446.574 5 204095752.79705         0.000          33.100  
  35833033.188 7  35833030.590 7 186592006.05507         0.000          45.100  
  35816575.727 7  35816575.547 7 186506303.34007         0.000          46.900  
  22595340.125 7  22595340.508 7 117659866.35207         0.000          46.700  
  23826286.148 7  23826287.207 7 124069722.90807         0.000          42.100  
  36821462.719 7  36821468.805 7 191739014.88807         0.000          46.000  
  25130742.578 6  25130751.199 7 130862367.46206         0.000          39.800  
  23527407.195 7         0.000   122513393.80607         0.000          44.900  
  24934569.594 7         0.000   129840858.72607         0.000          42.100  
  23782880.219 7         0.000   123843696.23207         0.000          45.500  
 22  6  2  5 22 10.0000000  0 14C01C02C03C04C05C07C10C11C12C13C14C21
                                C23C25
  37489904.609 6  37489908.766 7 195219808.20706         0.000          38.300  
  37492530.172 6  37492530.145 7 195233479.75906         0.000          38.200  
  36774342.438 7  36774342.281 7 191493648.97007         0.000          42.800  
  38580480.078 6  38580483.477 6 200898719.36606         0.000          38.700  
  39193677.289 5  39193680.148 5 204091762.10105         0.000          33.200  
  35832375.719 7  35832373.098 7 186588581.67607         0.000          45.300  
  35815578.852 7  35815578.289 7 186501110.92707         0.000          46.300  
  22594217.219 7  22594217.480 7 117654018.73407         0.000          46.600  
  23826641.992 7  23826642.863 7 124071574.27707         0.000          43.000  
  36820520.281 7  36820526.582 7 191734108.11907         0.000          45.500  
  25126986.289 6  25126994.699 7 130842805.94706         0.000          39.600  
  23526211.109 7         0.000   122507161.47007         0.000          45.300  
  24933207.555 7         0.000   129833766.67707         0.000          42.900  
  23783852.195 7         0.000   123848754.91407         0.000          45.300  
 22  6  2  5 22 15.0000000  0 14C01C02C03C04C05C07C10C11C12C13C14C21
                                C23C25
  37489156.125 6  37489159.574 7 195215907.63706         0.000          38.300  
  37491770.398 6  37491769.492 7 195229518.99106         0.000          38.200  
  36773572.422 7  36773572.875 7 191489640.97307         0.000          42.800  
  38579746.313 6  38579750.457 6 200894902.50606         0.000          38.700  
  39192913.594 5  39192914.402 5 204087772.35805         0.000          32.600  
  35831719.141 7  35831716.484 7 186585162.11007         0.000          44.600  
  35814582.109 7  35814582.051 7 186495922.93907         0.000          46.900  
  22593094.703 7  22593095.172 7 117648174.05307         0.000          46.700  
  23826997.883 7  23826998.738 7 124073428.39707         0.000          42.900  
  36819579.055 7  36819585.043 7 191729206.68507         0.000          45.400  
  25123229.133 6  25123238.238 7 130823245.79806         0.000          39.200  
  23525016.719 7         0.000   122500943.96707         0.000          45.400  
  24931848.219 7         0.000   129826689.01907         0.000          42.000  
  23784825.711 7         0.000   123853824.25607         0.000          45.900  
 22  6  2  5 22 20.0000000  0 14C01C02C03C04C05C07C10C11C12C13C14C21
                                C23C25
  37488407.539 6  37488411.320 7 195212010.79006         0.000          38.100  
  37491009.961 6  37491009.504 7 195225561.87106         0.000          38.200  
  36772803.625 7  36772803.684 7 191485636.73307         0.000          42.700  
  38579013.820 6  38579018.242 6 200891089.38706         0.000          38.400  
  39192147.492 5  39192149.469 5 204083787.37705         0.000          32.600  
  35831063.516 7  35831060.699 7 186581749.04107         0.000          45.300  
  35813587.289 7  35813586.734 7 186490741.11807         0.000          46.600  
  22591973.438 7  22591973.570 7 117642334.05807         0.000          46.800  
  23827354.258 7  23827355.809 7 124075287.00207         0.000          42.200  
  36818638.883 7  36818645.422 7 191724312.27307         0.000          45.900  
  25119473.727 6  25119482.668 7 130803688.76606         0.000          39.600  
  23523826.055 7         0.000   122494743.03507         0.000          44.800  
  24930491.625 7         0.000   129819627.49207         0.000          42.300  
  23785801.945 7         0.000   123858905.94307         0.000          46.000  
 22  6  2  5 22 25.0000000  0 14C01C02C03C04C05C07C10C11C12C13C14C21
                                C23C25
  37487659.898 6  37487663.648 7 195208117.14606         0.000          38.100  
  37490250.531 6  37490250.473 7 195221608.01106         0.000          38.100  
  36772035.227 7  36772035.516 7 191481635.73307         0.000          42.600  
  38578282.586 6  38578286.402 6 200887279.49306         0.000          38.600  
  39191382.172 5  39191384.230 5 204079806.60705         0.000          33.700  
  35830409.500 7  35830406.758 7 186578342.00707         0.000          45.500  
  35812593.125 7  35812592.918 7 186485564.87307         0.000          46.600  
  22590852.484 7  22590852.879 7 117636498.29407         0.000          47.200  
  23827712.141 7  23827713.539 7 124077149.54007         0.000          42.600  
  36817700.266 7  36817706.676 7 191719424.39307         0.000          45.900  
  25115718.492 6  25115727.758 7 130784134.31306         0.000          38.900  
  23522638.242 7         0.000   122488558.19607         0.000          45.300  
  24929138.984 6         0.000   129812581.61706         0.000          40.800  
  23786779.891 7         0.000   123863999.47107         0.000          45.600  
 22  6  2  5 22 30.0000000  0 14C01C02C03C04C05C07C10C11C12C13C14C21
                                C23C25
  37486912.898 6  37486916.508 7 195204226.29806         0.000          38.600  
  37489492.008 6  37489491.586 7 195217656.84906         0.000          38.100  
  36771267.688 7  36771267.699 7 191477637.50207         0.000          42.800  
  38577551.570 6  38577555.285 6 200883472.38606         0.000          37.800  
  39190617.203 5  39190620.285 5 204075827.54405         0.000          33.300  
  35829756.055 7  35829753.727 7 186574940.50907         0.000          45.800  
  35811600.063 7  35811599.867 7 186480393.84707         0.000          45.600  
  22589732.258 7  22589733.016 7 117630666.26307         0.000          46.600  
  23828070.875 7  23828071.965 7 124079015.61707         0.000          42.000  
  36816763.070 7  36816769.074 7 191714542.60707         0.000          46.000  
  25111963.727 6  25111972.895 7 130764581.99606         0.000          39.800  
  23521453.656 7         0.000   122482388.96907         0.000          45.100  
  24927788.336 6         0.000   129805550.90206         0.000          40.900  
  23787760.164 7         0.000   123869104.39707         0.000          45.900  
 22  6  2  5 22 35.0000000  0 14C01C02C03C04C05C07C10C11C12C13C14C21
                                C23C25
  37486165.914 6  37486169.594 7 195200337.87206         0.000          38.700  
  37488733.664 6  37488733.285 7 195213708.08606         0.000          38.300  
  36770499.898 7  36770500.363 7 191473641.72907         0.000          42.800  
  38576821.188 6  38576824.461 6 200879667.68606         0.000          38.500  
  39189853.977 5  39189856.223 5 204071850.85605         0.000          33.700  
  35829104.094 7  35829101.398 7 186571544.22307         0.000          45.400  
  35810607.641 7  35810607.602 7 186475227.61107         0.000          46.000  
  22588612.844 7  22588613.676 7 117624837.60307         0.000          45.800  
  23828429.352 7  23828430.727 7 124080884.85707         0.000          42.000  
  36815826.500 7  36815832.734 7 191709666.50807         0.000          46.200  
  25108209.297 6  25108218.270 7 130745031.46806         0.000          39.900  
  23520271.328 7         0.000   122476235.00507         0.000          43.900  
  24926440.875 6         0.000   129798535.03606         0.000          41.200  
  23788742.609 7         0.000   123874220.33907         0.000          45.400  
 22  6  2  5 22 40.0000000  0 14C01C02C03C04C05C07C10C11C12C13C14C21
                                C23C25
  37485419.766 6  37485423.086 6 195196450.39506         0.000          39.000  
  37487975.586 6  37487975.164 7 195209760.23906         0.000          38.000  
  36769733.023 7  36769733.219 7 191469646.93307         0.000          42.800  
  38576090.797 6  38576094.191 6 200875863.95306         0.000          38.800  
  39189090.742 5         0.000   204067875.66405         0.000          33.700  
  35828452.328 7  35828449.863 7 186568151.73907         0.000          45.200  
  35809616.516 7  35809616.137 7 186470064.79707         0.000          46.300  
  22587493.789 7  22587494.609 7 117619010.85807         0.000          46.000  
  23828788.594 6  23828789.695 7 124082755.82606         0.000          41.600  
  36814891.172 7  36814896.949 7 191704794.69507         0.000          46.300  
  25104455.477 6  25104464.129 7 130725481.35906         0.000          39.700  
  23519093.242 7         0.000   122470094.87707         0.000          45.400  
  24925096.477 6         0.000   129791532.51206         0.000          41.200  
  23789727.250 7         0.000   123879345.82907         0.000          45.900  
 22  6  2  5 22 45.0000000  0 14C01C02C03C04C05C07C10C11C12C13C14C21
                                C23C25
  37484673.813 6  37484677.285 7 195192566.26306         0.000          38.300  
  37487217.891 6  37487217.707 7 195205815.76006         0.000          38.300  
  36768966.492 7  36768966.508 7 191465655.49007         0.000          42.600  
  38575360.781 6  38575364.305 6 200872063.58906         0.000          37.500  
  39188328.930 5  39188329.398 5 204063903.19305         0.000          33.200  
  35827802.141 7  35827799.563 7 186564765.40307         0.000          45.200  
  35808625.938 7  35808625.770 7 186464907.67307         0.000          46.000  
  22586375.875 7  22586376.609 7 117613188.38507         0.000          46.500  
  23829148.305 7  23829150.008 7 124084630.90007         0.000          42.400  
  36813956.680 7  36813962.785 7 191699929.45307         0.000          46.100  
  25100700.938 6  25100710.492 7 130705933.99806         0.000          39.600  
  23517916.688 7         0.000   122463970.96107         0.000          45.500  
  24923754.867 6         0.000   129784545.72806         0.000          41.800  
  23790713.500 7         0.000   123884483.20607         0.000          45.800  
 22  6  2  5 22 50.0000000  0 14C01C02C03C04C05C07C10C11C12C13C14C21
                                C23C25
  37483928.531 6  37483931.789 7 195188684.20406         0.000          38.500  
  37486461.266 6  37486460.551 7 195201873.30106         0.000          38.400  
  36768200.227 7  36768200.652 7 191461666.16707         0.000          42.600  
  38574631.320 6  38574635.055 6 200868265.31206         0.000          37.900  
  39187565.523 5  39187567.941 5 204059934.38705         0.000          33.000  
  35827152.484 7  35827150.277 7 186561383.94307         0.000          46.000  
  35807636.633 7  35807636.348 7 186459755.12107         0.000          45.500  
  22585258.414 7  22585259.031 7 117607369.02507         0.000          46.200  
  23829510.094 7  23829510.555 7 124086508.80307         0.000          42.300  
  36813023.539 7  36813029.289 7 191695069.60107         0.000          46.400  
  25096947.422 6  25096957.070 7 130686388.15506         0.000          39.900  
  23516743.648 7         0.000   122457861.97707         0.000          45.300  
  24922416.148 7         0.000   129777573.48507         0.000          42.400  
  23791702.781 7         0.000   123889631.30607         0.000          44.900  
 22  6  2  5 22 55.0000000  0 14C01C02C03C04C05C07C10C11C12C13C14C21
                                C23C25
  37483183.070 6  37483186.719 7 195184804.67506         0.000          38.100  
  37485703.898 6  37485703.840 7 195197933.35906         0.000          38.300  
  36767434.594 7  36767434.883 7 191457679.41507         0.000          42.500  
  38573902.672 6  38573906.137 6 200864469.61806         0.000          38.600  
  39186803.797 5  39186806.039 5 204055967.61205         0.000          33.800  
  35826504.742 7  35826501.949 7 186558007.85507         0.000          45.500  
  35806648.164 7  35806647.797 7 186454607.51707         0.000          46.500  
  22584141.484 7  22584142.160 7 117601553.13307         0.000          46.500  
  23829871.055 7  23829871.828 7 124088390.00407         0.000          42.400  
  36812091.289 7  36812096.945 7 191690215.61207         0.000          46.300  
  25093194.672 6  25093204.164 7 130666844.29406         0.000          40.000  
  23515573.133 7         0.000   122451768.45907         0.000          44.700  
  24921080.438 7         0.000   129770616.17607         0.000          43.200  
  23792693.180 7         0.000   123894790.48207         0.000          44.600  
 22  6  2  5 23  0.0000000  0 14C01C02C03C04C05C07C10C11C12C13C14C21
                                C23C25
  37482438.508 6  37482442.313 6 195180927.44806         0.000          38.600  
  37484948.023 6  37484947.660 7 195193995.65106         0.000          38.200  
  36766669.727 7  36766669.969 7 191453694.93807         0.000          42.700  
  38573173.727 6  38573177.730 6 200860676.16806         0.000          37.900  
  39186043.172 5  39186044.277 5 204052002.00205         0.000          32.500  
  35825856.781 7  35825854.461 7 186554636.80107         0.000          45.400  
  35805660.281 7  35805660.160 7 186449464.61607         0.000          46.200  
  22583025.469 7  22583025.914 7 117595740.46107         0.000          46.600  
  23830233.305 7  23830233.645 7 124090274.23907         0.000          42.400  
  36811160.344 7  36811165.938 7 191685367.19607         0.000          46.200  
  25089441.258 6  25089451.477 7 130647302.16406         0.000          40.200  
  23514405.898 7         0.000   122445690.08107         0.000          45.100  
  24919747.609 7         0.000   129763673.55407         0.000          43.000  
  23793686.078 7         0.000   123899960.50507         0.000          45.000  
 22  6  2  5 23  5.0000000  0 14C01C02C03C04C05C07C10C11C12C13C14C21
                                C23C25
  37481694.617 6  37481698.117 7 195177052.71506         0.000          38.500  
  37484192.086 6  37484191.883 7 195190060.39806         0.000          37.900  
  36765904.469 7  36765905.266 7 191449713.00807         0.000          42.700  
  38572446.148 6  38572449.957 6 200856885.25106         0.000          38.100  
  39185281.484 5  39185283.035 5 204048038.92405         0.000          33.500  
  35825211.039 7  35825208.078 7 186551271.09107         0.000          45.900  
  35804673.844 7  35804673.703 7 186444326.60807         0.000          46.300  
  22581910.023 7  22581910.316 7 117589931.26607         0.000          46.800  
  23830595.531 7  23830596.109 7 124092161.72907         0.000          43.100  
  36810230.125 7  36810235.805 7 191680524.60407         0.000          46.600  
  25085688.773 6  25085698.988 7 130627761.98806         0.000          40.400  
  23513241.539 7         0.000   122439627.08607         0.000          45.000  
  24918416.852 7         0.000   129756745.83907         0.000          43.300  
  23794680.859 7         0.000   123905141.55407         0.000          45.200  
 22  6  2  5 23 10.0000000  0 14C01C02C03C04C05C07C10C11C12C13C14C21
                                C23C25
  37480950.922 6  37480954.586 7 195173180.57306         0.000          38.700  
  37483437.086 6  37483436.742 7 195186127.74906         0.000          37.800  
  36765140.750 7  36765140.934 7 191445733.68407         0.000          42.700  
  38571718.758 6  38571722.313 6 200853096.91206         0.000          37.600  
  39184520.883 5  39184522.816 5 204044079.41305         0.000          32.300  
  35824565.344 7  35824563.008 7 186547910.73907         0.000          45.600  
  35803688.094 7  35803687.848 7 186439193.67407         0.000          45.400  
  22580794.797 7  22580795.469 7 117584125.60707         0.000          47.100  
  23830958.633 7  23830959.406 7 124094052.58007         0.000          42.500  
  36809301.320 7  36809307.059 7 191675687.82607         0.000          46.600  
  25081936.211 6  25081946.570 7 130608223.81806         0.000          39.800  
  23512079.828 7         0.000   122433579.53407         0.000          45.100  
  24917089.586 6         0.000   129749833.12706         0.000          41.800  
  23795679.031 7         0.000   123910333.70807         0.000          46.300  
 22  6  2  5 23 15.0000000  0 14C01C02C03C04C05C07C10C11C12C13C14C21
                                C23C25
  37480207.797 6  37480211.324 7 195169311.03206         0.000          38.500  
  37482682.172 6  37482682.316 7 195182197.67306         0.000          38.300  
  36764377.250 7  36764377.078 7 191441756.96707         0.000          42.900  
  38570991.320 6  38570995.379 6 200849311.19506         0.000          38.200  
  39183761.258 5  39183762.594 5 204040122.42705         0.000          33.000  
  35823921.195 7  35823918.453 7 186544555.83707         0.000          45.700  
  35802703.125 7  35802703.004 7 186434065.74507         0.000          45.600  
  22579680.922 7  22579681.383 7 117578323.52307         0.000          46.600  
  23831322.656 7  23831323.184 7 124095946.75707         0.000          43.000  
  36808373.836 7  36808379.352 7 191670856.94907         0.000          46.700  
  25078185.469 6  25078194.793 7 130588687.75706         0.000          40.200  
  23510921.953 7         0.000   122427547.50007         0.000          46.100  
  24915764.625 7         0.000   129742935.42407         0.000          42.400  
  23796677.313 7         0.000   123915536.99307         0.000          45.500  
 22  6  2  5 23 20.0000000  0 14C01C02C03C04C05C07C10C11C12C13C14C21
                                C23C25
  37479465.109 6  37479468.719 7 195165443.35706         0.000          38.600  
  37481928.172 6  37481927.672 7 195178269.41306         0.000          37.700  
  36763613.711 7  36763613.852 7 191437782.12307         0.000          42.900  
  38570265.109 6  38570268.629 6 200845527.37206         0.000          37.900  
  39183001.648 5  39183002.594 5 204036166.77905         0.000          33.200  
  35823278.000 7  35823275.133 7 186541205.59107         0.000          45.400  
  35801719.102 7  35801719.215 7 186428942.12407         0.000          46.600  
  22578567.102 7  22578567.297 8 117572524.24807         0.000          47.600  
  23831686.727 7  23831687.379 7 124097843.61607         0.000          42.700  
  36807446.906 7  36807452.523 7 191666031.26807         0.000          45.900  
  25074433.781 6  25074443.215 7 130569153.12206         0.000          40.800  
  23509766.320 7         0.000   122421530.23507         0.000          45.700  
  24914442.398 7         0.000   129736051.97707         0.000          42.100  
  23797678.438 7         0.000   123920750.67207         0.000          45.900  
 22  6  2  5 23 25.0000000  0 14C01C02C03C04C05C07C10C11C12C13C14C21
                                C23C25
  37478722.805 6  37478726.348 7 195161577.75606         0.000          38.900  
  37481174.281 6  37481173.500 7 195174343.22406         0.000          38.300  
  36762850.516 7  36762850.926 7 191433809.38207         0.000          42.700  
  38569538.734 6  38569542.551 6 200841745.59706         0.000          38.000  
  39182241.672 5  39182243.371 5 204032213.21705         0.000          33.700  
  35822634.883 7  35822632.828 7 186537860.21507         0.000          45.400  
  35800736.383 7  35800736.160 7 186423823.00307         0.000          46.600  
  22577453.703 7  22577454.430 7 117566728.00207         0.000          47.200  
  23832052.063 7  23832052.047 7 124099743.28507         0.000          43.000  
  36806521.508 7  36806526.785 7 191661210.87607         0.000          46.300  
  25070682.516 6  25070691.773 7 130549619.98706         0.000          40.900  
  23508613.250 7         0.000   122415527.92007         0.000          46.000  
  24913123.102 7         0.000   129729183.03107         0.000          42.000  
  23798682.219 7         0.000   123925974.88207         0.000          45.700  
 22  6  2  5 23 30.0000000  0 14C01C02C03C04C05C07C10C11C12C13C14C21
                                C23C25
  37477980.797 6  37477984.543 7 195157715.10506         0.000          38.300  
  37480420.508 6  37480420.270 7 195170419.93706         0.000          37.900  
  36762087.930 7  36762088.594 7 191429839.65107         0.000          42.900  
  38568812.578 6  38568816.711 6 200837966.83106         0.000          38.300  
  39181481.406 5  39181484.352 5 204028262.13305         0.000          32.800  
  35821993.789 7  35821991.465 7 186534520.71307         0.000          45.300  
  35799754.281 7  35799754.055 7 186418709.30207         0.000          46.300  
  22576341.805 7  22576342.027 7 117560935.68607         0.000          46.700  
  23832417.961 7  23832417.910 7 124101646.73907         0.000          43.500  
  36805596.703 7  36805602.273 7 191656396.80307         0.000          46.400  
  25066931.414 6  25066941.109 7 130530089.35406         0.000          40.400  
  23507463.859 7         0.000   122409541.49807         0.000          45.500  
  24911806.813 7         0.000   129722329.50407         0.000          42.800  
  23799687.227 7         0.000   123931210.58807         0.000          45.800  
 22  6  2  5 23 35.0000000  0 14C01C02C03C04C05C07C10C11C12C13C14C21
                                C23C25
  37477239.539 6  37477243.309 7 195153854.95006         0.000          38.100  
  37479667.469 6  37479667.230 7 195166499.10406         0.000          38.200  
  36761326.734 7  36761326.805 7 191425872.39607         0.000          43.100  
  38568087.750 6  38568091.938 6 200834190.52506         0.000          38.900  
  39180725.070 5  39180725.496 5 204024313.44105         0.000          33.300  
  35821353.469 7  35821351.332 7 186531186.43407         0.000          45.300  
  35798773.391 7  35798772.965 7 186413600.52107         0.000          46.000  
  22575229.891 7  22575230.121 7 117555146.78807         0.000          46.600  
  23832783.820 7  23832783.832 7 124103553.38107         0.000          43.800  
  36804673.477 7  36804678.809 7 191651588.45107         0.000          47.000  
  25063181.453 6  25063190.719 7 130510560.67406         0.000          39.900  
  23506317.406 7         0.000   122403570.43807         0.000          45.000  
  24910493.367 6         0.000   129715490.83806         0.000          41.800  
  23800695.133 7         0.000   123936457.22107         0.000          46.100  
 22  6  2  5 23 40.0000000  0 14C01C02C03C04C05C07C10C11C12C13C14C21
                                C23C25
  37476498.656 6  37476502.438 6 195149997.12406         0.000          38.300  
  37478915.594 6  37478914.914 7 195162580.56606         0.000          38.400  
  36760565.063 7  36760565.402 7 191421907.50807         0.000          42.900  
  38567362.836 6  38567366.863 6 200830416.55106         0.000          38.400  
  39179966.867 5  39179968.043 5 204020367.01405         0.000          32.200  
  35820714.336 7  35820712.363 7 186527857.32907         0.000          45.500  
  35797792.867 7  35797792.836 7 186408496.51007         0.000          46.500  
  22574118.961 7  22574119.164 7 117549361.18607         0.000          47.700  
  23833150.469 7  23833150.684 7 124105463.14107         0.000          43.900  
  36803751.500 7  36803756.430 7 191646785.74707         0.000          46.600  
  25059431.953 6  25059441.336 7 130491033.86406         0.000          39.800  
  23505173.633 7         0.000   122397614.66807         0.000          46.500  
  24909183.148 7         0.000   129708666.90507         0.000          42.300  
  23801704.992 7         0.000   123941714.67507         0.000          46.800  
 22  6  2  5 23 45.0000000  0 14C01C02C03C04C05C07C10C11C12C13C14C21
                                C23C25
  37475758.102 6  37475762.270 7 195146141.47906         0.000          38.300  
  37478162.922 6  37478162.813 7 195158664.19006         0.000          38.300  
  36759804.266 7  36759804.211 7 191417944.79907         0.000          43.000  
  38566638.430 6  38566642.625 6 200826644.80506         0.000          37.900  
  39179209.445 5  39179210.496 5 204016422.83305         0.000          33.100  
  35820075.602 7  35820073.797 7 186524533.22007         0.000          45.800  
  35796813.641 7  35796813.406 7 186403397.13707         0.000          46.100  
  22573008.461 7  22573008.875 7 117543578.72807         0.000          47.600  
  23833517.211 7  23833517.863 7 124107375.85207         0.000          43.300  
  36802829.922 7  36802835.465 7 191641988.51007         0.000          46.700  
  25055681.797 6  25055691.465 7 130471508.81206         0.000          40.900  
  23504032.828 7         0.000   122391673.95407         0.000          45.300  
  24907875.859 7         0.000   129701857.54107         0.000          42.600  
  23802716.539 7         0.000   123946982.77007         0.000          46.900  
 22  6  2  5 23 50.0000000  0 13C01C02C03C04C07C10C11C12C13C14C21C23
                                C25
  37475018.078 6  37475022.063 7 195142287.73906         0.000          38.400  
  37477411.391 6  37477410.965 7 195154749.64706         0.000          38.200  
  36759043.492 7  36759043.750 7 191413984.02607         0.000          42.900  
  38565915.047 6  38565918.715 6 200822874.92806         0.000          38.300  
  35819438.281 7  35819436.426 7 186521213.83907         0.000          45.000  
  35795835.188 7  35795835.148 7 186398302.06907         0.000          46.000  
  22571898.594 8  22571898.938 7 117537799.09508         0.000          48.100  
  23833885.656 7  23833885.922 7 124109291.29707         0.000          43.300  
  36801909.719 7  36801915.016 7 191637196.42807         0.000          46.500  
  25051933.000 6  25051942.004 7 130451985.17606         0.000          40.400  
  23502895.367 7         0.000   122385748.08607         0.000          46.300  
  24906571.031 7         0.000   129695062.56207         0.000          42.000  
  23803729.859 7         0.000   123952261.20807         0.000          47.000  
 22  6  2  5 23 55.0000000  0 14C01C02C03C04C05C07C10C11C12C13C14C21
                                C23C25
  37474279.281 6  37474282.344 7 195138436.21206         0.000          38.500  
  37476659.859 6  37476659.602 7 195150837.38506         0.000          38.300  
  36758283.125 7  36758283.500 7 191410025.50507         0.000          42.700  
  38565191.727 6  38565194.922 6 200819107.33106         0.000          38.400  
  39177696.328 5  39177697.191 5 204008540.38705         0.000          32.400  
  35818802.047 7  35818799.789 7 186517899.55807         0.000          45.400  
  35794857.820 7  35794857.871 7 186393211.70707         0.000          46.300  
  22570789.109 7  22570789.656 8 117532022.70707         0.000          47.200  
  23834253.453 7  23834254.227 7 124111209.72607         0.000          43.200  
  36800990.156 7  36800995.902 7 191632409.80207         0.000          47.100  
  25048183.648 6  25048192.938 7 130432463.34706         0.000          40.900  
  23501759.852 7         0.000   122379837.37207         0.000          45.800  
  24905268.758 6         0.000   129688282.23606         0.000          41.400  
  23804745.859 7         0.000   123957550.32807         0.000          46.500  
 22  6  2  5 24  0.0000000  0 14C01C02C03C04C05C07C10C11C12C13C14C21
                                C23C25
  37473539.508 6  37473543.105 7 195134586.82806         0.000          38.400  
  37475908.617 6  37475908.730 7 195146927.18006         0.000          38.400  
  36757523.523 7  36757523.914 7 191406069.13607         0.000          42.600  
  38564468.359 6  38564472.035 6 200815341.85806         0.000          38.700  
  39176938.992 5  39176940.563 5 204004602.37205         0.000          33.400  
  35818166.680 7  35818164.352 7 186514590.19607         0.000          45.300  
  35793881.234 7  35793881.027 7 186388125.96507         0.000          46.600  
  22569680.023 7  22569681.004 8 117526249.39907         0.000          47.500  
  23834622.852 7  23834623.227 7 124113131.08207         0.000          43.200  
  36800072.461 7  36800077.824 7 191627628.63007         0.000          46.300  
  25044434.930 6  25044444.184 7 130412943.21606         0.000          39.700  
  23500627.648 7         0.000   122373941.70907         0.000          46.200  
  24903969.625 7         0.000   129681516.41407         0.000          42.700  
  23805763.695 7         0.000   123962850.00107         0.000          46.400  
 22  6  2  5 24  5.0000000  0 14C01C02C03C04C05C07C10C11C12C13C14C21
                                C23C25
  37472800.945 6  37472804.371 7 195130740.70406         0.000          38.700  
  37475158.438 6  37475158.789 7 195143020.19806         0.000          38.200  
  36756764.758 7  36756764.656 7 191402116.05307         0.000          42.500  
  38563746.195 6  38563749.367 6 200811579.65506         0.000          38.700  
  39176183.648 5  39176184.984 5 204000667.59205         0.000          32.900  
  35817532.211 7  35817529.809 7 186511286.95307         0.000          44.500  
  35792905.211 7  35792905.523 7 186383045.89607         0.000          46.300  
  22568572.078 7  22568573.176 7 117520480.27007         0.000          46.600  
  23834992.313 7  23834993.098 7 124115056.46307         0.000          43.000  
  36799155.641 7  36799160.766 7 191622854.03207         0.000          47.100  
  25040687.203 6  25040696.457 7 130393425.95306         0.000          40.200  
  23499498.609 7         0.000   122368062.25107         0.000          45.700  
  24902673.469 7         0.000   129674766.27307         0.000          43.000  
  23806783.547 7         0.000   123968161.34607         0.000          46.400  
 22  6  2  5 24 10.0000000  0 14C01C02C03C04C05C07C10C11C12C13C14C21
                                C23C25
  37472062.117 6  37472066.352 7 195126896.09806         0.000          38.300  
  37474408.773 6  37474408.664 7 195139114.75306         0.000          38.200  
  36756005.773 7  36756005.973 7 191398164.50107         0.000          42.600  
  38563023.305 6  38563027.473 6 200807818.98806         0.000          38.600  
  39175427.586 5  39175429.379 5 203996734.28305         0.000          32.900  
  35816898.898 7  35816896.117 7 186507988.03107         0.000          44.500  
  35791930.281 7  35791930.648 7 186377969.82007         0.000          46.300  
  22567464.406 7  22567465.680 8 117514713.66207         0.000          45.400  
  23835362.055 7  23835363.313 7 124116984.16007         0.000          42.100  
  36798239.508 7  36798244.605 7 191618084.18607         0.000          46.300  
  25036939.047 6  25036948.469 7 130373909.78306         0.000          39.800  
  23498372.164 7         0.000   122362197.27007         0.000          45.100  
  24901380.023 7         0.000   129668030.09007         0.000          42.900  
  23807805.703 7         0.000   123973482.64107         0.000          46.600  
 22  6  2  5 24 15.0000000  0 14C01C02C03C04C05C07C10C11C12C13C14C21
                                C23C25
  37471324.242 6  37471328.324 7 195123053.52706         0.000          38.400  
  37473658.938 6  37473658.945 7 195135211.26006         0.000          37.900  
  36755246.859 7  36755247.172 7 191394215.02107         0.000          42.600  
  38562302.219 6  38562305.648 6 200804060.40706         0.000          38.400  
  39174673.055 5  39174675.488 5 203992803.01505         0.000          32.800  
  35816265.938 7  35816263.656 7 186504693.98507         0.000          45.500  
  35790956.438 7  35790956.797 7 186372898.24807         0.000          45.800  
  22566357.813 7  22566358.938 7 117508950.00807         0.000          46.900  
  23835732.656 6  23835733.980 7 124118914.66706         0.000          41.300  
  36797324.508 7  36797329.898 7 191613319.70307         0.000          46.600  
  25033191.977 6  25033201.027 7 130354395.29006         0.000          40.000  
  23497248.797 7         0.000   122356347.28507         0.000          44.800  
  24900089.445 7         0.000   129661308.39807         0.000          43.200  
  23808829.203 7         0.000   123978814.35807         0.000          46.300  
 22  6  2  5 24 20.0000000  0 14C01C02C03C04C05C07C10C11C12C13C14C21
                                C23C25
  37470587.023 6  37470590.777 6 195119213.06506         0.000          38.100  
  37472910.055 6  37472909.500 7 195131309.89706         0.000          38.000  
  36754488.781 7  36754489.203 7 191390267.65507         0.000          42.600  
  38561580.375 6  38561584.273 6 200800303.87506         0.000          37.700  
  39173918.695 5  39173920.543 5 203988873.85705         0.000          31.600  
  35815634.688 7  35815632.156 7 186501404.86807         0.000          45.600  
  35789983.602 7  35789983.770 7 186367831.18807         0.000          45.800  
  22565251.320 7  22565252.691 7 117503189.40607         0.000          46.300  
  23836103.672 7  23836105.285 7 124120848.05307         0.000          42.300  
  36796410.680 7  36796415.723 7 191608560.55307         0.000          46.600  
  25029444.367 6  25029453.738 7 130334882.47506         0.000          40.000  
  23496127.828 7         0.000   122350512.30407         0.000          45.400  
  24898801.656 7         0.000   129654601.18307         0.000          43.600  
  23809855.273 7         0.000   123984156.56707         0.000          46.300  
 22  6  2  5 24 25.0000000  0 14C01C02C03C04C05C07C10C11C12C13C14C21
                                C23C25
  37469849.828 6  37469853.680 7 195115374.71806         0.000          38.200  
  37472160.891 6  37472160.867 7 195127410.60906         0.000          37.900  
  36753731.609 7  36753731.875 7 191386322.42607         0.000          42.600  
  38560859.219 6  38560863.148 6 200796549.50206         0.000          38.300  
  39173164.711 5         0.000   203984947.88405         0.000          33.400  
  35815003.688 7  35815001.414 7 186498120.70107         0.000          44.900  
  35789011.164 7  35789011.676 7 186362768.72907         0.000          46.000  
  22564145.961 7  22564146.836 7 117497431.88107         0.000          46.300  
  23836475.578 7  23836477.035 7 124122784.39607         0.000          42.500  
  36795497.820 7  36795502.762 7 191603806.84707         0.000          46.700  
  25025697.922 6  25025706.891 7 130315371.41106         0.000          40.400  
  23495010.289 7         0.000   122344692.43207         0.000          45.500  
  24897517.148 7         0.000   129647908.52107         0.000          44.700  
  23810883.180 7         0.000   123989509.27107         0.000          45.300  
 22  6  2  5 24 30.0000000  0 14C01C02C03C04C05C07C10C11C12C13C14C21
                                C23C25
  37469113.094 6  37469116.914 7 195111538.07306         0.000          38.500  
  37471412.219 6  37471412.387 7 195123512.97406         0.000          38.000  
  36752974.328 7  36752974.461 7 191382378.89507         0.000          42.600  
  38560138.734 6  38560142.777 6 200792796.82206         0.000          38.500  
  39172410.758 5  39172411.883 5 203981022.34305         0.000          33.000  
  35814374.242 7  35814371.586 7 186494841.05007         0.000          45.600  
  35788039.727 7  35788040.156 7 186357710.38907         0.000          46.000  
  22563040.969 7  22563041.480 7 117491676.97407         0.000          46.700  
  23836848.313 6  23836849.355 7 124124723.19906         0.000          41.700  
  36794585.539 7  36794590.852 7 191599058.05007         0.000          47.500  
  25021951.539 6  25021960.559 7 130295861.69706         0.000          40.400  
  23493895.070 7         0.000   122338887.18107         0.000          45.000  
  24896234.398 7         0.000   129641229.99207         0.000          44.300  
  23811913.023 7         0.000   123994872.03507         0.000          45.500  
 22  6  2  5 24 35.0000000  0 14C01C02C03C04C05C07C10C11C12C13C14C21
                                C23C25
  37468377.133 6  37468380.586 7 195107704.81206         0.000          38.700  
  37470664.695 6  37470664.543 7 195119618.71906         0.000          38.100  
  36752217.625 7  36752217.703 7 191378438.80807         0.000          42.800  
  38559418.789 6  38559422.723 6 200789047.55406         0.000          38.600  
  39171657.820 5  39171658.980 5 203977100.30005         0.000          33.100  
  35813745.664 7  35813742.977 7 186491567.65707         0.000          46.300  
  35787069.711 7  35787069.742 7 186352657.89107         0.000          46.500  
  22561936.375 7  22561937.125 7 117485926.43907         0.000          46.400  
  23837221.250 7  23837222.305 7 124126666.18607         0.000          42.100  
  36793675.414 7  36793680.270 7 191594315.90707         0.000          47.000  
  25018204.891 6  25018214.629 7 130276355.05306         0.000          39.900  
  23492783.609 7         0.000   122333098.29607         0.000          45.300  
  24894955.148 7         0.000   129634567.24107         0.000          44.600  
  23812945.477 7         0.000   124000246.52307         0.000          45.700  
 22  6  2  5 24 40.0000000  0 14C01C02C03C04C05C07C10C11C12C13C14C21
                                C23C25
  37467641.359 6  37467644.781 7 195103873.49506         0.000          38.600  
  37469917.086 6  37469917.121 7 195115726.33306         0.000          38.100  
  36751460.992 7  36751461.434 7 191374500.64907         0.000          42.900  
  38558699.352 6  38558703.016 6 200785300.20006         0.000          38.400  
  39170905.742 5  39170906.234 5 203973181.13805         0.000          33.000  
  35813118.039 7  35813115.406 7 186488298.99607         0.000          46.000  
  35786100.305 7  35786100.430 7 186347609.81107         0.000          45.900  
  22560832.805 7  22560833.055 7 117480178.76507         0.000          46.400  
  23837594.828 6  23837596.309 7 124128611.91306         0.000          41.700  
  36792765.727 7  36792770.574 7 191589578.96207         0.000          47.300  
  25014458.859 6  25014469.227 7 130256849.95806         0.000          39.500  
  23491674.633 7         0.000   122327324.29307         0.000          45.000  
  24893678.227 7         0.000   129627918.82807         0.000          44.300  
  23813979.813 7         0.000   124005631.28507         0.000          46.000  
 22  6  2  5 24 45.0000000  0 14C01C02C03C04C05C07C10C11C12C13C14C21
                                C23C25
  37466906.008 6  37466909.773 7 195100044.41406         0.000          38.500  
  37469170.055 6  37469170.117 7 195111836.23106         0.000          38.300  
  36750705.438 7  36750705.707 7 191370564.79807         0.000          42.800  
  38557979.906 6  38557983.852 6 200781555.18706         0.000          38.400  
  39170151.914 5  39170154.059 5 203969262.23305         0.000          33.400  
  35812491.117 7  35812488.410 7 186485035.47507         0.000          45.600  
  35785131.531 7  35785131.828 7 186342566.49207         0.000          45.800  
  22559729.539 7  22559730.059 7 117474434.39307         0.000          45.900  
  23837968.953 6  23837970.395 7 124130560.71906         0.000          41.300  
  36791857.070 7  36791861.891 7 191584847.55307         0.000          47.900  
  25010713.602 6  25010723.832 7 130237346.85306         0.000          40.000  
  23490568.672 7         0.000   122321565.54607         0.000          44.900  
  24892404.648 7         0.000   129621285.13307         0.000          44.100  
  23815016.016 7         0.000   124011026.69507         0.000          46.300  
 22  6  2  5 24 50.0000000  0 14C01C02C03C04C05C07C10C11C12C13C14C21
                                C23C25
  37466171.094 6  37466174.543 7 195096217.17606         0.000          38.600  
  37468423.508 6  37468423.277 7 195107947.85206         0.000          38.100  
  36749949.766 7  36749950.113 7 191366630.76507         0.000          42.600  
  38557260.609 6  38557264.902 6 200777811.93106         0.000          38.500  
  39169400.164 5  39169402.086 5 203965346.14405         0.000          32.400  
  35811865.453 7  35811862.625 7 186481776.59607         0.000          45.800  
  35784164.320 7  35784164.332 7 186337527.45307         0.000          46.300  
  22558626.750 7  22558627.313 7 117468692.70007         0.000          46.500  
  23838343.477 7  23838344.816 7 124132512.11207         0.000          42.000  
  36790949.617 8  36790954.574 7 191580121.23208         0.000          48.100  
  25006968.414 6  25006978.961 7 130217845.21906         0.000          39.700  
  23489465.719 7         0.000   122315821.56207         0.000          44.200  
  24891133.086 7         0.000   129614665.65807         0.000          44.500  
  23816054.148 7         0.000   124016432.20407         0.000          46.700  
 22  6  2  5 24 55.0000000  0 14C01C02C03C04C05C07C10C11C12C13C14C21
                                C23C25
  37465435.945 6  37465439.961 7 195092391.60506         0.000          38.400  
  37467676.586 6  37467676.973 7 195104061.16206         0.000          37.900  
  36749194.719 7  36749194.867 7 191362698.46107         0.000          42.600  
  38556542.078 6  38556546.652 6 200774070.42606         0.000          38.000  
  39168648.313 5  39168650.461 5 203961431.67405         0.000          33.400  
  35811240.734 7  35811237.488 7 186478522.28807         0.000          45.400  
  35783197.422 7  35783197.543 7 186332492.59507         0.000          45.600  
  22557524.852 7  22557525.020 7 117462953.69707         0.000          46.800  
  23838719.398 6  23838720.184 7 124134466.02106         0.000          41.400  
  36790042.719 7  36790047.809 7 191575399.84907         0.000          47.200  
  25003223.484 6  25003234.168 7 130198345.00006         0.000          38.700  
  23488365.594 7         0.000   122310092.26207         0.000          43.900  
  24889863.984 7         0.000   129608060.30307         0.000          43.600  
  23817094.344 7         0.000   124021847.74407         0.000          46.500  
 22  6  2  5 25  0.0000000  0 14C01C02C03C04C05C07C10C11C12C13C14C21
                                C23C25
  37464702.273 6  37464705.816 7 195088568.19806         0.000          38.300  
  37466931.336 6  37466930.867 7 195100176.63606         0.000          38.100  
  36748440.156 7  36748440.207 7 191358768.32007         0.000          42.600  
  38555824.563 6  38555828.098 6 200770331.06706         0.000          38.300  
  39167898.125 5  39167898.523 5 203957519.37105         0.000          33.100  
  35810616.531 7  35810613.426 7 186475272.94907         0.000          45.800  
  35782231.445 7  35782231.422 7 186327462.38107         0.000          46.000  
  22556423.180 7  22556423.703 7 117457217.76407         0.000          46.800  
  23839094.570 6  23839096.031 7 124136422.93306         0.000          41.600  
  36789136.758 7  36789142.012 7 191570683.92007         0.000          46.600  
  24999478.953 6  24999489.563 7 130178846.60506         0.000          38.300  
  23487268.109 7         0.000   122304378.11007         0.000          43.200  
  24888598.484 7         0.000   129601469.52707         0.000          43.600  
  23818135.797 7         0.000   124027273.74207         0.000          46.000  
 22  6  2  5 25  5.0000000  0 14C01C02C03C04C05C07C10C11C12C13C14C21
                                C23C25
  37463968.203 6  37463972.105 7 195084747.10706         0.000          38.400  
  37466185.648 6  37466185.426 7 195096294.35906         0.000          38.200  
  36747685.570 7  36747686.055 7 191354840.50607         0.000          42.600  
  38555106.625 6  38555110.840 6 200766594.00306         0.000          38.400  
  39167146.359 5  39167147.434 5 203953608.33705         0.000          32.000  
  35809994.063 7  35809990.527 7 186472028.75507         0.000          46.300  
  35781266.047 7  35781266.484 7 186322436.90907         0.000          46.300  
  22555322.586 7  22555322.789 7 117451485.11407         0.000          46.500  
  23839471.430 7  23839472.109 7 124138382.88007         0.000          42.600  
  36788232.430 7  36788237.559 7 191565973.57507         0.000          47.300  
  24995734.891 6  24995745.512 7 130159350.22306         0.000          38.000  
  23486174.063 7         0.000   122298679.23807         0.000          43.100  
  24887335.336 7         0.000   129594893.47407         0.000          42.700  
  23819180.242 7         0.000   124032710.33107         0.000          46.700  
 22  6  2  5 25 10.0000000  0 14C01C02C03C04C05C07C10C11C12C13C14C21
                                C23C25
  37463235.016 6  37463238.664 7 195080928.25706         0.000          38.400  
  37465440.688 6  37465440.074 7 195092414.26806         0.000          38.300  
  36746931.875 7  36746932.105 7 191350914.95507         0.000          42.500  
